[{"global_id":169190743,"ID":1,"AdmArea":"Öåíòðàëüíûé àäìèíèñòðàòèâíûé îêðóã","District":"Òàãàíñêèé ðàéîí","Location":"óëèöà Òàãàíñêàÿ, äîì 40, ñòðîåíèå 1À","LocationClarification":"Çà òåððèòîðèåé ïàðêà, çà ìîíàñòûðñêîé ñòåíîé","Name":"Ïðàçäíè÷íûé Ôåéåðâåðê â ÏÊèÎ «Òàãàíñêèé»","geoData":{"type":"Point","coordinates":[37.666236,55.737529]}},{"global_id":169190845,"ID":3,"AdmArea":"Ñåâåðî-Âîñòî÷íûé àäìèíèñòðàòèâíûé îêðóã","District":"Ëîñèíîîñòðîâñêèé ðàéîí","Location":"óëèöà Ìåíæèíñêîãî, äîì 6, ñòðîåíèå 3","LocationClarification":"Ðÿäîì ñ êàòêîì","Name":"Ïðàçäíè÷íûé Ôåéåðâåðê â ÏÊèÎ «Áàáóøêèíñêèé»","geoData":{"type":"Point","coordinates":[37.684626,55.869284]}},{"global_id":169190846,"ID":4,"AdmArea":"Âîñòî÷íûé àäìèíèñòðàòèâíûé îêðóã","District":"ðàéîí Èçìàéëîâî","Location":"Ìîñêîâñêèé ïðîñïåêò, äîì 2","LocationClarification":"Ñåâåðíàÿ ïëîùàäü","Name":"Ïðàçäíè÷íûé Ôåéåðâåðê â ÏÊèÎ «Èçìàéëîâñêèé»","geoData":{"type":"Point","coordinates":[37.750195,55.772095]}},{"global_id":169190848,"ID":5,"AdmArea":"Âîñòî÷íûé àäìèíèñòðàòèâíûé îêðóã","District":"ðàéîí Ñåâåðíîå Èçìàéëîâî","Location":"Ùåëêîâñêîå øîññå, âëàäåíèå 8-12","LocationClarification":"Íà òåððèòîðèè ïàðêà, âèä íà ôåéåðâåðê ñ ôîíòàííîé ïëîùàäè","Name":"Ïðàçäíè÷íûé Ôåéåðâåðê â Ïàðêå «Ñèðåíåâûé ñàä»","geoData":{"type":"Point","coordinates":[37.765403,55.804096]}},{"global_id":169190850,"ID":6,"AdmArea":"Âîñòî÷íûé àäìèíèñòðàòèâíûé îêðóã","District":"ðàéîí Ñîêîëüíèêè","Location":"ïðîåçä Ñîêîëüíè÷åñêîãî Êðóãà","LocationClarification":"Ôîíòàííàÿ ïëîùàäü","Name":"Ïðàçäíè÷íûé Ôåéåðâåðê â ÏÊèÎ «Ñîêîëüíèêè»","geoData":{"type":"Point","coordinates":[37.677042,55.793847]}},{"global_id":169190951,"ID":7,"AdmArea":"Öåíòðàëüíûé àäìèíèñòðàòèâíûé îêðóã","District":"Òâåðñêîé ðàéîí","Location":"óëèöà Êàðåòíûé ðÿä, äîì 3. ñòðîåíèå 7","LocationClarification":"Ñëåâà îò öåíòðàëüíîãî âõîäà","Name":"Ïðàçäíè÷íûé Ôåéåðâåðê â Ñàäó «Ýðìèòàæ»","geoData":{"type":"Point","coordinates":[37.610964,55.770471]}},{"global_id":169190952,"ID":8,"AdmArea":"Âîñòî÷íûé àäìèíèñòðàòèâíûé îêðóã","District":"ðàéîí Ïåðîâî","Location":"óëèöà Ëàçî, âëàäåíèå 7","LocationClarification":"Ïëîùàäêà âîçëå Êóïàâåíñêîãî ïðóäà","Name":"Ïðàçäíè÷íûé Ôåéåðâåðê â ÏÊèÎ «Ïåðîâñêèé»","geoData":{"type":"Point","coordinates":[37.775781,55.744421]}},{"global_id":169190953,"ID":9,"AdmArea":"Öåíòðàëüíûé àäìèíèñòðàòèâíûé îêðóã","District":"Ïðåñíåíñêèé ðàéîí","Location":"Ìàíòóëèíñêàÿ óëèöà, äîì 5, ñòðîåíèå 2","LocationClarification":"Íèæíèé Êðàñíîãâàðäåéñêèé ïðóä","Name":"Ïðàçäíè÷íûé Ôåéåðâåðê â ÏÊèÎ «Êðàñíàÿ Ïðåñíÿ»","geoData":{"type":"Point","coordinates":[37.544367,55.758166]}},{"global_id":169190954,"ID":10,"AdmArea":"Ñåâåðî-Çàïàäíûé àäìèíèñòðàòèâíûé îêðóã","District":"ðàéîí Ñåâåðíîå Òóøèíî","Location":"óëèöà Ñâîáîäû, äîì 56","LocationClarification":"Ïëîùàäêà ó ÷àñîâíè","Name":"Ïðàçäíè÷íûé Ôåéåðâåðê â ÏÊèÎ «Ñåâåðíîå Òóøèíî»","geoData":{"type":"Point","coordinates":[37.451333,55.865453]}},{"global_id":169191155,"ID":11,"AdmArea":"Þãî-Çàïàäíûé àäìèíèñòðàòèâíûé îêðóã","District":"Îáðó÷åâñêèé ðàéîí","Location":"óëèöà Âîðîíöîâñêèå ïðóäû, äîì 3","LocationClarification":"Âîçëå àëëåè «Þæíûé ëó÷», íàïðîòèâ äîìà 8","Name":"Ïðàçäíè÷íûé Ôåéåðâåðê â «Óñàäüáå Âîðîíöîâî»","geoData":{"type":"Point","coordinates":[37.53309,55.666182]}},{"global_id":169191156,"ID":12,"AdmArea":"Ñåâåðî-Âîñòî÷íûé àäìèíèñòðàòèâíûé îêðóã","District":"ðàéîí Ëèàíîçîâî","Location":"óëèöà Óãëè÷ñêàÿ, äîì 13","LocationClarification":"Öåíòðàëüíàÿ ïëîùàäü","Name":"Ïðàçäíè÷íûé Ôåéåðâåðê â ÏÊèÎ «Ëèàíîçîâñêèé»","geoData":{"type":"Point","coordinates":[37.571876,55.901644]}},{"global_id":169191157,"ID":13,"AdmArea":"Ñåâåðî-Âîñòî÷íûé àäìèíèñòðàòèâíûé îêðóã","District":"Áóòûðñêèé ðàéîí","Location":"óëèöà Ðóñòàâåëè, âëàäåíèå 7","LocationClarification":"Ïîäãîòîâëåííàÿ ïëîùàäêà","Name":"Ïðàçäíè÷íûé Ôåéåðâåðê â Ãîí÷àðîâñêîì ïàðêå","geoData":{"type":"Point","coordinates":[37.588511,55.813672]}},{"global_id":169191158,"ID":14,"AdmArea":"Þãî-Âîñòî÷íûé àäìèíèñòðàòèâíûé îêðóã","District":"ðàéîí Êóçüìèíêè","Location":"Êóçüìèíñêèé ïàðê, äîì 1, ñòðîåíèå 2","LocationClarification":"Öåíòðàëüíàÿ ïëîùàäü","Name":"Ïðàçäíè÷íûé Ôåéåðâåðê â ÏÊèÎ «Êóçüìèíêè»","geoData":{"type":"Point","coordinates":[37.76999,55.688016]}},{"global_id":169191159,"ID":15,"AdmArea":"Þæíûé àäìèíèñòðàòèâíûé îêðóã","District":"ðàéîí Íàãàòèíî-Ñàäîâíèêè","Location":"ïðîñïåêò Àíäðîïîâà, äîì 58À","LocationClarification":"Ôîíòàííàÿ ïëîùàäü","Name":"Ïðàçäíè÷íûé Ôåéåðâåðê â ÏÊèÎ «Ñàäîâíèêè»","geoData":{"type":"Point","coordinates":[37.652411,55.660303]}},{"global_id":169191160,"ID":16,"AdmArea":"Çàïàäíûé àäìèíèñòðàòèâíûé îêðóã","District":"ðàéîí Ïðîñïåêò Âåðíàäñêîãî","Location":"óëèöà Óäàëüöîâà, äîì 22","LocationClarification":"Çà Ïëîùàäüþ ñåìüè","Name":"Ïðàçäíè÷íûé Ôåéåðâåðê â Ïàðêå 50-ëåòèÿ Îêòÿáðÿ","geoData":{"type":"Point","coordinates":[37.505607,55.682483]}},{"global_id":169191265,"ID":17,"AdmArea":"Öåíòðàëüíûé àäìèíèñòðàòèâíûé îêðóã","District":"ðàéîí ßêèìàíêà","Location":"óëèöà Êðûìñêèé Âàë, âëàäåíèå 2","LocationClarification":"Áàðæà íà Ìîñêâå-ðåêå íàïðîòèâ Ïóøêèíñêîé íàáåðåæíîé","Name":"Ïðàçäíè÷íûé Ôåéåðâåðê â ÖÏÊèÎ èì. Ì.Ãîðüêîãî","geoData":{"type":"Point","coordinates":[37.596313,55.731064]}},{"global_id":169191368,"ID":19,"AdmArea":"Öåíòðàëüíûé àäìèíèñòðàòèâíûé îêðóã","District":"Áàñìàííûé ðàéîí","Location":"óëèöà Ñòàðàÿ Áàñìàííàÿ, äîì 15À, ñòðîåíèå 4","LocationClarification":"Îêîëî òåííèñíîãî êîðòà","Name":"Ïðàçäíè÷íûé Ôåéåðâåðê â Ñàäó èìåíè Áàóìàíà","geoData":{"type":"Point","coordinates":[37.658799,55.766652]}},{"global_id":170869737,"ID":22,"AdmArea":"Çàïàäíûé àäìèíèñòðàòèâíûé îêðóã","District":"ðàéîí Äîðîãîìèëîâî","Location":"óëèöà Áðàòüåâ Ôîí÷åíêî, äîì 7","LocationClarification":"Ïàðê Ïîáåäû íà Ïîêëîííîé ãîðå, Àëëåÿ Ïàðòèçàí","Name":"Ïðàçäíè÷íûé Ôåéåðâåðê â ïàðêå Ïîáåäû íà Ïîêëîííîé ãîðå","geoData":{"type":"Point","coordinates":[37.499291,55.728702]}},{"global_id":272838040,"ID":28,"AdmArea":"Çàïàäíûé àäìèíèñòðàòèâíûé îêðóã","District":"ðàéîí Íîâî-Ïåðåäåëêèíî","Location":"óëèöà Ôåäîñüèíî, äîì 18","LocationClarification":"Íà áåðåãó Ôåäîñüèíñêîãî ïðóäà","Name":"Ïðàçäíè÷íûé Ôåéåðâåðê â Íîâî-Ïåðåäåëêèíî","geoData":{"type":"Point","coordinates":[37.335121,55.639318]}},{"global_id":272838060,"ID":35,"AdmArea":"Þãî-Âîñòî÷íûé àäìèíèñòðàòèâíûé îêðóã","District":"ðàéîí Êóçüìèíêè","Location":"óëèöà Çàðå÷üå, äîì 3","Name":"Ïðàçäíè÷íûé ôåéåðâåðê â Êóçüìèíêàõ","geoData":{"type":"Point","coordinates":[37.771027,55.686842]}},{"global_id":272838064,"ID":34,"AdmArea":"Âîñòî÷íûé àäìèíèñòðàòèâíûé îêðóã","District":"ðàéîí Èçìàéëîâî","Location":"Ãîðîäîê èìåíè Áàóìàíà","Name":"Ïðàçäíè÷íûé Ôåéåðâåðê â Èçìàéëîâî","geoData":{"type":"Point","coordinates":[37.76203,55.792073]}},{"global_id":282200762,"ID":36,"AdmArea":"Öåíòðàëüíûé àäìèíèñòðàòèâíûé îêðóã","District":"Òâåðñêîé ðàéîí","Location":"Ìîñêâîðåöêàÿ óëèöà","LocationClarification":"Ó îñíîâàíèÿ Áîëüøîãî Ìîñêâîðåöêîãî ìîñòà","Name":"Ïðàçäíè÷íûé Ôåéåðâåðê ó îñíîâàíèÿ Áîëüøîãî Ìîñêâîðåöêîãî ìîñòà","geoData":{"type":"Point","coordinates":[37.625208,55.750606]}},{"global_id":282206060,"ID":43,"AdmArea":"Þãî-Çàïàäíûé àäìèíèñòðàòèâíûé îêðóã","District":"ðàéîí Ñåâåðíîå Áóòîâî","Location":"ïåðåñå÷åíèå óëèöû Àêàäåìèêà Ãëóøêî è Áóëüâàðà Äìèòðèÿ Äîíñêîãî","Name":"Ïðàçäíè÷íûé Ôåéåðâåðê â Ñåâåðíîì Áóòîâî","geoData":{"type":"Point","coordinates":[37.570202,55.561486]}},{"global_id":282206215,"ID":44,"AdmArea":"Çåëåíîãðàäñêèé àäìèíèñòðàòèâíûé îêðóã","District":"ðàéîí Ñòàðîå Êðþêîâî","Location":"Îç¸ðíàÿ àëëåÿ, äîì 4, ñòðîåíèå 2","Name":"Ïðàçäíè÷íûé Ôåéåðâåðê â Çåëåíîãðàäå","geoData":{"type":"Point","coordinates":[37.214889,55.986153]}},{"global_id":638387655,"ID":49,"AdmArea":"Ñåâåðî-Âîñòî÷íûé àäìèíèñòðàòèâíûé îêðóã","District":"ðàéîí Ëèàíîçîâî","Location":"Íîâãîðîäñêàÿ óëèöà, äîì 38","LocationClarification":"Íà áåðåãó ïðóäà","Name":"Ïðàçäíè÷íûé ôåéåðâåðê â Ëèàíîçîâî","geoData":{"type":"Point","coordinates":[37.580652,55.906077]}},{"global_id":638387797,"ID":52,"AdmArea":"Ñåâåðî-Çàïàäíûé àäìèíèñòðàòèâíûé îêðóã","District":"ðàéîí Ìèòèíî","Location":"óëèöà Ðîñëîâêà, äîì 5","LocationClarification":"Íà òåððèòîðèè ëàíäøàôòíîãî ïàðêà çà ÔÎÊ «Àêâàìàðèí»","Name":"Ïðàçäíè÷íûé Ôåéåðâåðê â Ìèòèíî","geoData":{"type":"Point","coordinates":[37.366646,55.831428]}},{"global_id":638387892,"ID":56,"AdmArea":"Íîâîìîñêîâñêèé àäìèíèñòðàòèâíûé îêðóã","District":"ïîñåëåíèå Ìîñêîâñêèé","Location":"Ïîñåëåíèå «Ìîñêîâñêèé», òåððèòîðèÿ ÌÁÓ «Öåíòð ñïîðòà «Ìîñêîâñêèé»","LocationClarification":"òåððèòîðèÿ ÌÁÓ «Öåíòð ñïîðòà «Ìîñêîâñêèé»","Name":"Ïðàçäíè÷íûé Ôåéåðâåðê â Ìîñêîâñêîì","geoData":{"type":"Point","coordinates":[37.349422,55.596353]}},{"global_id":707419181,"ID":61,"AdmArea":"Ñåâåðî-Âîñòî÷íûé àäìèíèñòðàòèâíûé îêðóã","District":"Îñòàíêèíñêèé ðàéîí","Location":"ïðîñïåêò Ìèðà, äîìîâëàäåíèå 119","LocationClarification":"ÂÄÍÕ, Ñàä èì. Ìè÷óðèíà","Name":"Ïðàçäíè÷íûé Ôåéåðâåðê íà ÂÄÍÕ","geoData":{"type":"Point","coordinates":[37.617296,55.834413]}},{"global_id":707419189,"ID":62,"AdmArea":"Þãî-Âîñòî÷íûé àäìèíèñòðàòèâíûé îêðóã","District":"ðàéîí Ïå÷àòíèêè","Location":"íàïðîòèâ óëèöû Ãóðüÿíîâà, äîì 41À","LocationClarification":"íàáåðåæíàÿ Ìîñêâà-ðåêè","Name":"Ïðàçäíè÷íûé Ôåéåðâåðê â Ïå÷àòíèêàõ","geoData":{"type":"Point","coordinates":[37.714151,55.682645]}},{"global_id":886065001,"ID":66,"AdmArea":"Òðîèöêèé àäìèíèñòðàòèâíûé îêðóã","District":"ïîñåëåíèå Òðîèöê","Location":"óëèöà Ôèçè÷åñêàÿ","LocationClarification":"Âîçëå Ïîæàðíîé ÷àñòè ¹ 42","Name":"Ïðàçäíè÷íûé Ôåéåðâåðê â Òðîèöêå","geoData":{"type":"Point","coordinates":[37.297716,55.466916]}},{"global_id":903905568,"ID":67,"AdmArea":"Ñåâåðíûé àäìèíèñòðàòèâíûé îêðóã","District":"Õîðîø¸âñêèé ðàéîí","Location":"Õîäûíñêèé áóëüâàð, äîì 1","Name":"Ïðàçäíè÷íûé Ôåéåðâåðê â ïàðêå Õîäûíñêîå ïîëå","geoData":{"type":"Point","coordinates":[37.530295,55.788882]}}]
